{
  "schema_version": 1,
  "person": "Al-Ma'mun",
  "slug": "F0952",
  "lifespan": "0786-0833 CE",
  "confidence": {
    "grade": "B",
    "density": "moderate",
    "precision": "year",
    "disclosure": "Reconstructed from al-Tabari's annalistic Tarikh and al-Ya'qubi. The four major phases — the civil war with al-Amin from Merv, the long residence in Merv, the slow journey to Baghdad via Tus and Nahrawan, and the final Byzantine campaigns ending at Tarsus in 833 — are all well attested. Some intermediate stops during the Byzantine wars rely on al-Tabari's year-by-year summaries rather than day-by-day records."
  },
  "sources": [
    "Al-Tabari, Tarikh al-Rusul wa al-Muluk (c. 915)",
    "Al-Ya'qubi, Tarikh (c. 889)",
    "Michael Cooperson, Al-Ma'mun (2005)",
    "Hugh Kennedy, The Early Abbasid Caliphate (1981)"
  ],
  "journey": [
    {"year": 786, "location": "Baghdad, Iraq", "lat": 33.3152, "lng": 44.3661, "event": "Born in Baghdad on the night his father Harun al-Rashid acceded to the caliphate.", "category": "birth", "precision": "year", "source": "al-Tabari"},
    {"year": 802, "location": "Mecca, Saudi Arabia", "lat": 21.4225, "lng": 39.8262, "event": "Accompanied Harun al-Rashid to Mecca, where the famous succession document dividing the empire between him and al-Amin was deposited in the Ka'ba.", "category": "pilgrimage", "precision": "year", "source": "al-Tabari"},
    {"year": 808, "location": "Merv, Turkmenistan", "lat": 37.6594, "lng": 62.1939, "event": "Sent east as viceroy of Khurasan with his headquarters at Merv.", "category": "capital", "precision": "year", "source": "al-Tabari"},
    {"year": 811, "location": "Rayy, Iran", "lat": 35.5933, "lng": 51.4344, "event": "His general Tahir ibn al-Husayn defeated al-Amin's army under Ali ibn Isa at the Battle of Rayy, opening the civil war in his favour.", "category": "battle", "precision": "year", "source": "al-Tabari"},
    {"year": 813, "location": "Merv, Turkmenistan", "lat": 37.6594, "lng": 62.1939, "event": "Proclaimed caliph in Merv after Tahir's forces captured Baghdad and killed al-Amin.", "category": "coronation", "precision": "year", "source": "al-Tabari"},
    {"year": 817, "location": "Merv, Turkmenistan", "lat": 37.6594, "lng": 62.1939, "event": "Designated the eighth Shia Imam Ali al-Rida as his successor in Merv, a controversial decision that alienated the Abbasid elite in Baghdad.", "category": "other", "precision": "year", "source": "al-Tabari"},
    {"year": 818, "location": "Tus, Iran", "lat": 36.4833, "lng": 59.5167, "event": "Travelled through Tus, where Ali al-Rida died (reputedly by poisoning) and was buried; al-Ma'mun prayed at his father Harun al-Rashid's tomb there.", "category": "other", "precision": "year", "source": "al-Tabari"},
    {"year": 818, "location": "Nishapur, Iran", "lat": 36.2133, "lng": 58.7958, "event": "Continued westward through Nishapur on the long return journey to Baghdad.", "category": "other", "precision": "year", "source": "al-Tabari"},
    {"year": 819, "location": "Nahrawan, Iraq", "lat": 33.3500, "lng": 44.8500, "event": "Arrived at Nahrawan near Baghdad in August 819 after a journey of nearly two years from Merv.", "category": "other", "precision": "month", "source": "al-Tabari"},
    {"year": 819, "location": "Baghdad, Iraq", "lat": 33.3152, "lng": 44.3661, "event": "Entered Baghdad in state and took up residence as caliph, ending the long Khurasani absence.", "category": "capital", "precision": "month", "source": "al-Tabari"},
    {"year": 830, "location": "Tarsus, Turkey", "lat": 36.9167, "lng": 34.8833, "event": "Launched the first of his personal Byzantine campaigns, establishing Tarsus as the forward base.", "category": "campaign", "precision": "year", "source": "al-Tabari"},
    {"year": 831, "location": "Cappadocia, Turkey", "lat": 38.6431, "lng": 34.8289, "event": "Led a second summer campaign deep into Byzantine Cappadocia.", "category": "campaign", "precision": "year", "source": "al-Tabari"},
    {"year": 832, "location": "Alexandria, Egypt", "lat": 31.2001, "lng": 29.9187, "event": "Travelled personally to Egypt to suppress the Bashmurite revolt in the Nile Delta.", "category": "campaign", "precision": "year", "source": "al-Ya'qubi"},
    {"year": 832, "location": "Fustat, Egypt", "lat": 30.0073, "lng": 31.2333, "event": "Held court in Fustat and is said to have visited the Pyramids of Giza.", "category": "other", "precision": "year", "source": "al-Ya'qubi"},
    {"year": 833, "location": "Podandos (Pozanti), Turkey", "lat": 37.4333, "lng": 34.8833, "event": "Fell ill at Podandos on the Byzantine frontier during his third campaign and died on 7 August 833.", "category": "death", "precision": "day", "source": "al-Tabari"}
  ]
}
