{
  "slug": "F1674",
  "person": "Al-Qazwini",
  "journey": [
    {
      "year": 1203,
      "precision": "year",
      "lat": 34.3142,
      "lng": 47.0919,
      "location": "Qazwin",
      "modern": "Iran",
      "event": "Born in Qazwin to a family of scholars and jurists.",
      "category": "birth",
      "age": 0,
      "source": "EI2 al-Qazwini"
    },
    {
      "year": 1215,
      "precision": "year",
      "lat": 34.3142,
      "lng": 47.0919,
      "location": "Qazwin",
      "modern": "Iran",
      "event": "Began early education in Islamic law and Arabic sciences.",
      "category": "childhood",
      "age": 12,
      "source": "Biographical notices"
    },
    {
      "year": 1220,
      "precision": "year",
      "lat": 33.3152,
      "lng": 44.3661,
      "location": "Baghdad",
      "modern": "Iraq",
      "event": "Traveled to Baghdad for advanced studies in fiqh and hadith.",
      "category": "travel",
      "age": 17,
      "source": "Biographical sources"
    },
    {
      "year": 1223,
      "precision": "year",
      "lat": 33.3152,
      "lng": 44.3661,
      "location": "Baghdad",
      "modern": "Iraq",
      "event": "Studied Shafi'i jurisprudence under leading scholars.",
      "category": "study",
      "age": 20,
      "source": "Tabaqat literature"
    },
    {
      "year": 1230,
      "precision": "year",
      "lat": 36.2022,
      "lng": 44.0092,
      "location": "Mosul",
      "modern": "Iraq",
      "event": "Appointed as qadi in Mosul.",
      "category": "appointment",
      "age": 27,
      "source": "EI2 al-Qazwini"
    },
    {
      "year": 1235,
      "precision": "year",
      "lat": 36.2022,
      "lng": 44.0092,
      "location": "Mosul",
      "modern": "Iraq",
      "event": "Served as judge, administering Shafi'i law.",
      "category": "teaching",
      "age": 32,
      "source": "Biographical notices"
    },
    {
      "year": 1240,
      "precision": "year",
      "lat": 36.3489,
      "lng": 43.1453,
      "location": "Wasit",
      "modern": "Iraq",
      "event": "Transferred to judicial post in Wasit.",
      "category": "appointment",
      "age": 37,
      "source": "Biographical sources"
    },
    {
      "year": 1245,
      "precision": "year",
      "lat": 36.3489,
      "lng": 43.1453,
      "location": "Wasit",
      "modern": "Iraq",
      "event": "Began compiling notes on natural wonders and geography.",
      "category": "writing",
      "age": 42,
      "source": "Aja'ib preface"
    },
    {
      "year": 1250,
      "precision": "year",
      "lat": 36.3489,
      "lng": 43.1453,
      "location": "Wasit",
      "modern": "Iraq",
      "event": "Conducted astronomical observations for cosmographical work.",
      "category": "study",
      "age": 47,
      "source": "Aja'ib al-Makhluqat"
    },
    {
      "year": 1255,
      "precision": "year",
      "lat": 36.3489,
      "lng": 43.1453,
      "location": "Wasit",
      "modern": "Iraq",
      "event": "Resigned from judicial office to focus on scholarship.",
      "category": "appointment",
      "age": 52,
      "source": "Biographical sources"
    },
    {
      "year": 1258,
      "precision": "year",
      "lat": 33.3152,
      "lng": 44.3661,
      "location": "Baghdad",
      "modern": "Iraq",
      "event": "Witnessed Mongol destruction of Baghdad, sought refuge elsewhere.",
      "category": "conflict",
      "age": 55,
      "source": "Historical chronicles"
    },
    {
      "year": 1260,
      "precision": "year",
      "lat": 33.5138,
      "lng": 36.2765,
      "location": "Damascus",
      "modern": "Syria",
      "event": "Traveled to Damascus during Mongol invasions.",
      "category": "travel",
      "age": 57,
      "source": "Biographical notices"
    },
    {
      "year": 1262,
      "precision": "year",
      "lat": 33.3152,
      "lng": 44.3661,
      "location": "Baghdad",
      "modern": "Iraq",
      "event": "Returned to Baghdad region under Ilkhanid rule.",
      "category": "travel",
      "age": 59,
      "source": "EI2 al-Qazwini"
    },
    {
      "year": 1265,
      "precision": "year",
      "lat": 33.3152,
      "lng": 44.3661,
      "location": "Baghdad",
      "modern": "Iraq",
      "event": "Completed major work Aja'ib al-Makhluqat wa Ghara'ib al-Mawjudat.",
      "category": "writing",
      "age": 62,
      "source": "Aja'ib al-Makhluqat"
    },
    {
      "year": 1268,
      "precision": "year",
      "lat": 33.3152,
      "lng": 44.3661,
      "location": "Baghdad",
      "modern": "Iraq",
      "event": "Wrote on cosmology, minerals, plants, and animals.",
      "category": "writing",
      "age": 65,
      "source": "Aja'ib al-Makhluqat"
    },
    {
      "year": 1270,
      "precision": "year",
      "lat": 33.3152,
      "lng": 44.3661,
      "location": "Baghdad",
      "modern": "Iraq",
      "event": "Began composing Athar al-Bilad wa Akhbar al-'Ibad.",
      "category": "writing",
      "age": 67,
      "source": "Athar al-Bilad"
    },
    {
      "year": 1273,
      "precision": "year",
      "lat": 33.3152,
      "lng": 44.3661,
      "location": "Baghdad",
      "modern": "Iraq",
      "event": "Completed geographical encyclopedia describing cities and monuments.",
      "category": "writing",
      "age": 70,
      "source": "Athar al-Bilad"
    },
    {
      "year": 1275,
      "precision": "year",
      "lat": 33.3152,
      "lng": 44.3661,
      "location": "Baghdad",
      "modern": "Iraq",
      "event": "Works circulated widely, illustrated manuscripts commissioned.",
      "category": "teaching",
      "age": 72,
      "source": "Manuscript tradition"
    },
    {
      "year": 1278,
      "precision": "year",
      "lat": 33.3152,
      "lng": 44.3661,
      "location": "Baghdad",
      "modern": "Iraq",
      "event": "Continued teaching and revising cosmographical texts.",
      "category": "teaching",
      "age": 75,
      "source": "Biographical sources"
    },
    {
      "year": 1283,
      "precision": "year",
      "lat": 33.3152,
      "lng": 44.3661,
      "location": "Baghdad",
      "modern": "Iraq",
      "event": "Died in Baghdad at age 80.",
      "category": "death",
      "age": 80,
      "source": "EI2 al-Qazwini"
    },
    {
      "year": 1283,
      "precision": "year",
      "lat": 33.3152,
      "lng": 44.3661,
      "location": "Baghdad",
      "modern": "Iraq",
      "event": "Buried in Baghdad.",
      "category": "burial",
      "age": 80,
      "source": "Biographical sources"
    }
  ],
  "confidence": {
    "grade": "C",
    "density": "sparse",
    "precision": "year",
    "disclosure": "Al-Qazwini (d. 1283) is known through his cosmographical works. His career as a qadi in Wasit and Hilla is attested. Personal chronology is reconstructed from work dedications and biographical dictionaries."
  }
}