{
  "slug": "F0580",
  "person": "Farid al-Din Attar",
  "journey": [
    {
      "year": 1145,
      "month": 0,
      "day": 0,
      "precision": "year",
      "lat": 36.2138,
      "lng": 58.7958,
      "location": "Nishapur",
      "modern": "Iran",
      "event": "Born in Nishapur, Khorasan, into a family of apothecaries.",
      "category": "birth",
      "age": 0,
      "source": "Tadhkirat al-Awliya"
    },
    {
      "year": 1160,
      "precision": "year",
      "lat": 36.2138,
      "lng": 58.7958,
      "location": "Nishapur",
      "modern": "Iran",
      "event": "Trained as an apothecary under his father's guidance in the family pharmacy.",
      "category": "study",
      "age": 15,
      "source": "Traditional biographies"
    },
    {
      "year": 1165,
      "precision": "year",
      "lat": 36.2138,
      "lng": 58.7958,
      "location": "Nishapur",
      "modern": "Iran",
      "event": "Established his own pharmacy and began spiritual studies with local Sufis.",
      "category": "study",
      "age": 20,
      "source": "Attar biographical tradition"
    },
    {
      "year": 1170,
      "precision": "year",
      "lat": 36.2138,
      "lng": 58.7958,
      "location": "Nishapur",
      "modern": "Iran",
      "event": "Encountered wandering dervish who inspired spiritual transformation.",
      "category": "meeting",
      "age": 25,
      "source": "Tadhkirat al-Awliya"
    },
    {
      "year": 1175,
      "precision": "year",
      "lat": 36.2975,
      "lng": 59.6056,
      "location": "Mashhad",
      "modern": "Iran",
      "event": "Traveled to Mashhad to visit shrine of Imam Reza.",
      "category": "pilgrimage",
      "age": 30,
      "source": "Safina tradition"
    },
    {
      "year": 1178,
      "precision": "year",
      "lat": 36.2138,
      "lng": 58.7958,
      "location": "Nishapur",
      "modern": "Iran",
      "event": "Began composing Asrar-nama, first major mystical poem.",
      "category": "writing",
      "age": 33,
      "source": "Asrar-nama manuscript"
    },
    {
      "year": 1180,
      "precision": "year",
      "lat": 35.6892,
      "lng": 51.389,
      "location": "Ray",
      "modern": "Iran",
      "event": "Visited Ray to study with Sufi masters.",
      "category": "study",
      "age": 35,
      "source": "Tadhkirat al-Awliya"
    },
    {
      "year": 1185,
      "precision": "year",
      "lat": 36.2138,
      "lng": 58.7958,
      "location": "Nishapur",
      "modern": "Iran",
      "event": "Completed Mantiq al-Tayr, the Conference of the Birds.",
      "category": "writing",
      "age": 40,
      "source": "Mantiq al-Tayr colophons"
    },
    {
      "year": 1188,
      "precision": "year",
      "lat": 36.2138,
      "lng": 58.7958,
      "location": "Nishapur",
      "modern": "Iran",
      "event": "Wrote Ilahi-nama dedicated to Sultan Sanjar's son.",
      "category": "writing",
      "age": 43,
      "source": "Ilahi-nama dedication"
    },
    {
      "year": 1190,
      "precision": "year",
      "lat": 33.3152,
      "lng": 44.3661,
      "location": "Baghdad",
      "modern": "Iraq",
      "event": "Traveled to Baghdad, met with Sufi scholars and poets.",
      "category": "travel",
      "age": 45,
      "source": "Ritter biography"
    },
    {
      "year": 1192,
      "precision": "year",
      "lat": 36.2138,
      "lng": 58.7958,
      "location": "Nishapur",
      "modern": "Iran",
      "event": "Returned to Nishapur, resumed teaching disciples at his pharmacy.",
      "category": "teaching",
      "age": 47,
      "source": "Attar biographical tradition"
    },
    {
      "year": 1195,
      "precision": "year",
      "lat": 36.2138,
      "lng": 58.7958,
      "location": "Nishapur",
      "modern": "Iran",
      "event": "Completed Tadhkirat al-Awliya, biographical compendium of Muslim saints.",
      "category": "writing",
      "age": 50,
      "source": "Tadhkirat al-Awliya"
    },
    {
      "year": 1198,
      "precision": "year",
      "lat": 36.2138,
      "lng": 58.7958,
      "location": "Nishapur",
      "modern": "Iran",
      "event": "Composed Musibat-nama on spiritual trials and afflictions.",
      "category": "writing",
      "age": 53,
      "source": "Musibat-nama manuscript"
    },
    {
      "year": 1200,
      "precision": "year",
      "lat": 39.6279,
      "lng": 66.975,
      "location": "Samarkand",
      "modern": "Uzbekistan",
      "event": "Journeyed to Samarkand, met with scholars and Sufi masters.",
      "category": "travel",
      "age": 55,
      "source": "Jami Nafahat"
    },
    {
      "year": 1202,
      "precision": "year",
      "lat": 36.7645,
      "lng": 67.1076,
      "location": "Balkh",
      "modern": "Afghanistan",
      "event": "Visited Balkh where according to tradition he met young Rumi.",
      "category": "meeting",
      "age": 57,
      "source": "Rumi hagiography tradition"
    },
    {
      "year": 1204,
      "precision": "year",
      "lat": 36.2138,
      "lng": 58.7958,
      "location": "Nishapur",
      "modern": "Iran",
      "event": "Wrote Divan containing thousands of lyric poems and quatrains.",
      "category": "writing",
      "age": 59,
      "source": "Attar Divan manuscripts"
    },
    {
      "year": 1207,
      "precision": "year",
      "lat": 36.2138,
      "lng": 58.7958,
      "location": "Nishapur",
      "modern": "Iran",
      "event": "Compiled Khusraw-nama on Alexander and spiritual kingship.",
      "category": "writing",
      "age": 62,
      "source": "Khusraw-nama colophon"
    },
    {
      "year": 1210,
      "precision": "year",
      "lat": 36.2138,
      "lng": 58.7958,
      "location": "Nishapur",
      "modern": "Iran",
      "event": "Continued teaching despite advanced age, renowned throughout Khorasan.",
      "category": "teaching",
      "age": 65,
      "source": "Attar hagiography"
    },
    {
      "year": 1212,
      "precision": "year",
      "lat": 36.2138,
      "lng": 58.7958,
      "location": "Nishapur",
      "modern": "Iran",
      "event": "Completed Jawhar al-Dhat on the essence of divine unity.",
      "category": "writing",
      "age": 67,
      "source": "Jawhar al-Dhat manuscript"
    },
    {
      "year": 1215,
      "precision": "year",
      "lat": 36.2138,
      "lng": 58.7958,
      "location": "Nishapur",
      "modern": "Iran",
      "event": "Witnessed early Mongol raids on Khorasan region.",
      "category": "conflict",
      "age": 70,
      "source": "Historical chronicles"
    },
    {
      "year": 1218,
      "precision": "year",
      "lat": 36.2138,
      "lng": 58.7958,
      "location": "Nishapur",
      "modern": "Iran",
      "event": "Mongol armies began systematic invasion of Khwarazmian territories.",
      "category": "conflict",
      "age": 73,
      "source": "Juvayni Tarikh-i Jahan-Gusha"
    },
    {
      "year": 1221,
      "precision": "year",
      "lat": 36.2138,
      "lng": 58.7958,
      "location": "Nishapur",
      "modern": "Iran",
      "event": "Buried in Nishapur, shrine became pilgrimage site for Sufis.",
      "category": "burial",
      "age": 76,
      "source": "Nishapur shrine tradition"
    },
    {
      "year": 1221,
      "month": 4,
      "precision": "month",
      "lat": 36.2138,
      "lng": 58.7958,
      "location": "Nishapur",
      "modern": "Iran",
      "event": "Killed during Mongol massacre of Nishapur by Tolui's forces.",
      "category": "death",
      "age": 76,
      "source": "Juvayni chronicle"
    }
  ],
  "confidence": {
    "grade": "C",
    "density": "sparse",
    "precision": "year",
    "disclosure": "Matches existing graded entry. Attar's biography is poorly documented. Birth and death dates are approximate. His pharmacy in Nishapur and possible travels are inferred from his works rather than historical records."
  }
}