{
  "slug": "F0575",
  "person": "Fakhr al-Din al-Razi",
  "journey": [
    {
      "year": 1149,
      "month": 1,
      "day": 1,
      "precision": "year",
      "lat": 36.2974,
      "lng": 59.6059,
      "location": "Rayy",
      "modern": "Iran",
      "event": "Born in Rayy to Khatib Diya al-Din Umar, a noted scholar and preacher.",
      "category": "birth",
      "age": 0,
      "source": "EI2 al-Razi entry"
    },
    {
      "year": 1160,
      "precision": "year",
      "lat": 36.2974,
      "lng": 59.6059,
      "location": "Rayy",
      "modern": "Iran",
      "event": "Begins intensive study under his father in theology, law, and Quranic exegesis.",
      "category": "study",
      "age": 11,
      "source": "EI2 al-Razi entry"
    },
    {
      "year": 1168,
      "precision": "year",
      "lat": 36.2974,
      "lng": 59.6059,
      "location": "Rayy",
      "modern": "Iran",
      "event": "Continues advanced studies in kalam under Majd al-Din al-Jili after father's death.",
      "category": "study",
      "age": 19,
      "source": "Brockelmann GAL"
    },
    {
      "year": 1172,
      "precision": "year",
      "lat": 36.2974,
      "lng": 59.6059,
      "location": "Rayy",
      "modern": "Iran",
      "event": "Begins teaching theology and philosophy, attracting students with his brilliance.",
      "category": "teaching",
      "age": 23,
      "source": "Ibn Abi Usaybi'a"
    },
    {
      "year": 1176,
      "precision": "year",
      "lat": 39.6542,
      "lng": 66.9597,
      "location": "Samarkand",
      "modern": "Uzbekistan",
      "event": "Travels to Samarkand for disputations with Mu'tazilite scholars.",
      "category": "travel",
      "age": 27,
      "source": "al-Subki Tabaqat"
    },
    {
      "year": 1179,
      "precision": "year",
      "lat": 38.5598,
      "lng": 68.7738,
      "location": "Bukhara",
      "modern": "Uzbekistan",
      "event": "Engages in theological debates in Bukhara, defending Ash'arite positions.",
      "category": "conflict",
      "age": 30,
      "source": "al-Subki Tabaqat"
    },
    {
      "year": 1182,
      "precision": "year",
      "lat": 34.3277,
      "lng": 62.1989,
      "location": "Herat",
      "modern": "Afghanistan",
      "event": "Settles in Herat under patronage of Ghurids, establishes teaching circle.",
      "category": "appointment",
      "age": 33,
      "source": "EI2 al-Razi entry"
    },
    {
      "year": 1185,
      "precision": "year",
      "lat": 34.3277,
      "lng": 62.1989,
      "location": "Herat",
      "modern": "Afghanistan",
      "event": "Completes al-Mahsul fi 'ilm usul al-fiqh, major work on legal theory.",
      "category": "writing",
      "age": 36,
      "source": "Brockelmann GAL"
    },
    {
      "year": 1188,
      "precision": "year",
      "lat": 34.5553,
      "lng": 69.2075,
      "location": "Ghazni",
      "modern": "Afghanistan",
      "event": "Invited to Ghazni by Sultan Ghiyath al-Din, receives generous stipend.",
      "category": "appointment",
      "age": 39,
      "source": "al-Subki Tabaqat"
    },
    {
      "year": 1191,
      "precision": "year",
      "lat": 34.5553,
      "lng": 69.2075,
      "location": "Ghazni",
      "modern": "Afghanistan",
      "event": "Forced to flee Ghazni after conflict with Karrami scholars who accuse him of heresy.",
      "category": "exile",
      "age": 42,
      "source": "Ibn Khallikan"
    },
    {
      "year": 1192,
      "precision": "year",
      "lat": 36.7081,
      "lng": 67.1056,
      "location": "Balkh",
      "modern": "Afghanistan",
      "event": "Travels through Balkh, engages in debates with local scholars.",
      "category": "travel",
      "age": 43,
      "source": "al-Subki Tabaqat"
    },
    {
      "year": 1193,
      "precision": "year",
      "lat": 39.7738,
      "lng": 64.4208,
      "location": "Khwarazm",
      "modern": "Uzbekistan",
      "event": "Receives patronage from Khwarazmshah Tekish, teaches in his court.",
      "category": "appointment",
      "age": 44,
      "source": "EI2 al-Razi entry"
    },
    {
      "year": 1195,
      "precision": "year",
      "lat": 39.7738,
      "lng": 64.4208,
      "location": "Khwarazm",
      "modern": "Uzbekistan",
      "event": "Writes al-Arba'in fi usul al-din, systematic theology in forty chapters.",
      "category": "writing",
      "age": 46,
      "source": "Brockelmann GAL"
    },
    {
      "year": 1198,
      "precision": "year",
      "lat": 39.7738,
      "lng": 64.4208,
      "location": "Khwarazm",
      "modern": "Uzbekistan",
      "event": "Faces renewed hostility from rival scholars, considers departing.",
      "category": "conflict",
      "age": 49,
      "source": "Ibn Khallikan"
    },
    {
      "year": 1200,
      "precision": "year",
      "lat": 34.3277,
      "lng": 62.1989,
      "location": "Herat",
      "modern": "Afghanistan",
      "event": "Returns to Herat, begins his monumental Quranic commentary Mafatih al-Ghayb.",
      "category": "writing",
      "age": 51,
      "source": "EI2 al-Razi entry"
    },
    {
      "year": 1202,
      "precision": "year",
      "lat": 34.3277,
      "lng": 62.1989,
      "location": "Herat",
      "modern": "Afghanistan",
      "end_year": 1209,
      "event": "Continues work on Mafatih al-Ghayb, teaching large circle of disciples.",
      "category": "teaching",
      "age": 53,
      "source": "al-Dhahabi Siyar"
    },
    {
      "year": 1204,
      "precision": "year",
      "lat": 34.3277,
      "lng": 62.1989,
      "location": "Herat",
      "modern": "Afghanistan",
      "event": "Completes al-Matalib al-'Aliya, comprehensive philosophical-theological summa.",
      "category": "writing",
      "age": 55,
      "source": "Brockelmann GAL"
    },
    {
      "year": 1206,
      "precision": "year",
      "lat": 34.3277,
      "lng": 62.1989,
      "location": "Herat",
      "modern": "Afghanistan",
      "event": "Writes Muhassal afkar al-mutaqaddimin, summary of earlier philosophers and theologians.",
      "category": "writing",
      "age": 57,
      "source": "Brockelmann GAL"
    },
    {
      "year": 1209,
      "month": 3,
      "day": 25,
      "precision": "month",
      "lat": 34.3277,
      "lng": 62.1989,
      "location": "Herat",
      "modern": "Afghanistan",
      "event": "Dies in Herat, leaving Mafatih al-Ghayb incomplete at Surat al-Anbiya.",
      "category": "death",
      "age": 60,
      "source": "Ibn Khallikan Wafayat"
    },
    {
      "year": 1209,
      "month": 3,
      "day": 26,
      "precision": "month",
      "lat": 34.3277,
      "lng": 62.1989,
      "location": "Herat",
      "modern": "Afghanistan",
      "event": "Buried in Herat with large funeral attended by scholars and rulers.",
      "category": "burial",
      "age": 60,
      "source": "al-Subki Tabaqat"
    }
  ],
  "confidence": {
    "overall": "medium",
    "notes": "Birth year approximated to 1149; precise chronology of travels between 1176-1193 debated among sources."
  }
}