{
  "schema_version": 1,
  "person": "Humayun",
  "slug": "F0704",
  "lifespan": "1508-1556 CE",
  "confidence": {
    "grade": "B",
    "density": "moderate",
    "precision": "year",
    "disclosure": "Reconstructed principally from Gulbadan Begum's Humayun-nama (written by his sister, an eyewitness to much of his life), Jauhar Aftabchi's Tazkirat al-Waqiat (written by Humayun's personal attendant), and Abul Fazl's Akbar-nama. The fifteen-year exile (1540-1555) is unusually well documented because both Gulbadan and Jauhar were with him for much of it. Some intermediate stops in Sind and the initial Persian journey are dated approximately."
  },
  "sources": [
    "Gulbadan Begum, Humayun-nama (c. 1587)",
    "Jauhar Aftabchi, Tazkirat al-Waqiat (c. 1587)",
    "Abul Fazl, Akbar-nama (c. 1596)",
    "Khwandamir, Qanun-i Humayuni (c. 1534)",
    "Ishwari Prasad, The Life and Times of Humayun (1955)"
  ],
  "journey": [
    {"year": 1508, "location": "Kabul, Afghanistan", "lat": 34.5553, "lng": 69.2075, "event": "Born in Kabul on 6 March 1508 to Babur and Mahim Begum.", "category": "birth", "precision": "day", "source": "Gulbadan"},
    {"year": 1526, "location": "Panipat, India", "lat": 29.3909, "lng": 76.9635, "event": "Commanded the right wing of Babur's army at the First Battle of Panipat that founded the Mughal empire.", "category": "battle", "precision": "month", "source": "Gulbadan"},
    {"year": 1527, "location": "Khanwa, India", "lat": 27.0667, "lng": 77.6167, "event": "Fought at the Battle of Khanwa against Rana Sanga.", "category": "battle", "precision": "month", "source": "Gulbadan"},
    {"year": 1530, "location": "Agra, India", "lat": 27.1767, "lng": 78.0081, "event": "Enthroned at Agra on 29 December 1530 after the death of Babur.", "category": "coronation", "precision": "day", "source": "Gulbadan"},
    {"year": 1535, "location": "Mandu, India", "lat": 22.3500, "lng": 75.4000, "event": "Captured the Malwa hilltop capital of Mandu from Bahadur Shah of Gujarat.", "category": "battle", "precision": "year", "source": "Gulbadan"},
    {"year": 1535, "location": "Champaner, India", "lat": 22.4867, "lng": 73.5375, "event": "Took the Gujarat fortress of Champaner, reputedly climbing the cliff on iron spikes.", "category": "battle", "precision": "year", "source": "Gulbadan"},
    {"year": 1539, "location": "Chausa, India", "lat": 25.5167, "lng": 83.8833, "event": "Defeated by Sher Shah Suri at the Battle of Chausa on the Ganges on 26 June 1539; escaped by swimming the river.", "category": "battle", "precision": "day", "source": "Jauhar"},
    {"year": 1540, "location": "Kannauj, India", "lat": 27.0650, "lng": 79.9197, "event": "Decisively defeated by Sher Shah Suri at the Battle of Kannauj on 17 May 1540, losing the empire and beginning fifteen years of exile.", "category": "battle", "precision": "day", "source": "Jauhar"},
    {"year": 1540, "location": "Agra, India", "lat": 27.1767, "lng": 78.0081, "event": "Fled from Agra with a small retinue as Sher Shah's forces advanced.", "category": "exile", "precision": "month", "source": "Jauhar"},
    {"year": 1540, "location": "Lahore, Pakistan", "lat": 31.5497, "lng": 74.3436, "event": "Held a family council at Lahore but failed to unite his brothers for a counter-offensive.", "category": "exile", "precision": "month", "source": "Gulbadan"},
    {"year": 1541, "location": "Bhakkar, Pakistan", "lat": 27.7167, "lng": 68.7500, "event": "Besieged Bhakkar in Sind for several months without success.", "category": "exile", "precision": "year", "source": "Jauhar"},
    {"year": 1541, "location": "Sehwan, Pakistan", "lat": 26.4236, "lng": 67.8619, "event": "Attempted unsuccessfully to take Sehwan in Sind.", "category": "exile", "precision": "year", "source": "Jauhar"},
    {"year": 1542, "location": "Umarkot, Pakistan", "lat": 25.3618, "lng": 69.7379, "event": "Given shelter by the Hindu Rana of Umarkot in Sind, where his son Akbar was born on 15 October 1542.", "category": "exile", "precision": "day", "source": "Gulbadan"},
    {"year": 1543, "location": "Jun, Pakistan", "lat": 25.3000, "lng": 68.5667, "event": "Quarrelled with his brother Mirza Hindal at Jun in Sind.", "category": "exile", "precision": "year", "source": "Jauhar"},
    {"year": 1543, "location": "Kandahar, Afghanistan", "lat": 31.6100, "lng": 65.7100, "event": "Reached Kandahar but his brother Askari refused him entry; narrowly escaped capture.", "category": "exile", "precision": "year", "source": "Jauhar"},
    {"year": 1544, "location": "Sistan, Iran", "lat": 31.0000, "lng": 61.5000, "event": "Crossed the Afghan-Persian border into the Sistan region.", "category": "exile", "precision": "year", "source": "Jauhar"},
    {"year": 1544, "location": "Herat, Afghanistan", "lat": 34.3529, "lng": 62.2040, "event": "Received as an honoured guest at Herat by the Safavid governor.", "category": "exile", "precision": "year", "source": "Jauhar"},
    {"year": 1544, "location": "Mashhad, Iran", "lat": 36.2605, "lng": 59.6168, "event": "Visited the shrine of Imam Reza at Mashhad en route to meet Shah Tahmasp.", "category": "pilgrimage", "precision": "year", "source": "Jauhar"},
    {"year": 1544, "location": "Nishapur, Iran", "lat": 36.2133, "lng": 58.7958, "event": "Travelled through Nishapur on the way west.", "category": "exile", "precision": "year", "source": "Jauhar"},
    {"year": 1544, "location": "Sabzevar, Iran", "lat": 36.2126, "lng": 57.6819, "event": "Continued westward through Sabzevar.", "category": "exile", "precision": "year", "source": "Jauhar"},
    {"year": 1544, "location": "Damghan, Iran", "lat": 36.1683, "lng": 54.3486, "event": "Passed through Damghan in Qumes.", "category": "exile", "precision": "year", "source": "Jauhar"},
    {"year": 1544, "location": "Rayy (Tehran area), Iran", "lat": 35.5933, "lng": 51.4344, "event": "Reached Rayy near modern Tehran.", "category": "exile", "precision": "year", "source": "Jauhar"},
    {"year": 1544, "location": "Qazvin, Iran", "lat": 36.2797, "lng": 50.0049, "event": "Arrived at the Safavid capital Qazvin.", "category": "exile", "precision": "year", "source": "Jauhar"},
    {"year": 1544, "location": "Sultaniyya, Iran", "lat": 36.4333, "lng": 48.7833, "event": "Formally received by Shah Tahmasp I near Sultaniyya; granted 12,000 troops to reconquer Kandahar.", "category": "embassy", "precision": "month", "source": "Jauhar"},
    {"year": 1545, "location": "Mashhad, Iran", "lat": 36.2605, "lng": 59.6168, "event": "Returned east through Mashhad with the Safavid auxiliary force.", "category": "campaign", "precision": "year", "source": "Jauhar"},
    {"year": 1545, "location": "Kandahar, Afghanistan", "lat": 31.6100, "lng": 65.7100, "event": "Besieged and retook Kandahar with Safavid help in September 1545.", "category": "campaign", "precision": "month", "source": "Jauhar"},
    {"year": 1545, "location": "Kabul, Afghanistan", "lat": 34.5553, "lng": 69.2075, "event": "Captured Kabul from his brother Kamran in November 1545.", "category": "campaign", "precision": "month", "source": "Jauhar"},
    {"year": 1547, "location": "Kabul, Afghanistan", "lat": 34.5553, "lng": 69.2075, "event": "Lost Kabul to Kamran again, then retook it for the second time.", "category": "campaign", "precision": "year", "source": "Jauhar"},
    {"year": 1550, "location": "Kabul, Afghanistan", "lat": 34.5553, "lng": 69.2075, "event": "Defeated Kamran a third and final time and held Kabul permanently.", "category": "campaign", "precision": "year", "source": "Gulbadan"},
    {"year": 1553, "location": "Kabul, Afghanistan", "lat": 34.5553, "lng": 69.2075, "event": "Captured and blinded Kamran, ending the fraternal civil war.", "category": "other", "precision": "year", "source": "Gulbadan"},
    {"year": 1555, "location": "Peshawar, Pakistan", "lat": 34.0151, "lng": 71.5249, "event": "Crossed the Khyber and descended into Peshawar at the start of the reconquest.", "category": "campaign", "precision": "month", "source": "Abul Fazl"},
    {"year": 1555, "location": "Lahore, Pakistan", "lat": 31.5497, "lng": 74.3436, "event": "Took Lahore in February 1555 against weak Suri resistance.", "category": "campaign", "precision": "month", "source": "Abul Fazl"},
    {"year": 1555, "location": "Sirhind, India", "lat": 30.6400, "lng": 76.3833, "event": "Defeated Sikandar Shah Suri at the decisive Battle of Sirhind in June 1555.", "category": "battle", "precision": "month", "source": "Abul Fazl"},
    {"year": 1555, "location": "Delhi, India", "lat": 28.6139, "lng": 77.2090, "event": "Re-entered Delhi in triumph on 23 July 1555 after fifteen years of exile.", "category": "capital", "precision": "day", "source": "Abul Fazl"},
    {"year": 1556, "location": "Delhi, India", "lat": 28.6139, "lng": 77.2090, "event": "Died in Delhi on 27 January 1556 after falling down the stairs of his library at the Purana Qila.", "category": "death", "precision": "day", "source": "Abul Fazl"}
  ]
}
