{
  "slug": "F0728",
  "person": "Ibn al-Arabi",
  "journey": [
    {
      "year": 1165,
      "month": 7,
      "day": 28,
      "precision": "day",
      "lat": 37.9922,
      "lng": -1.1307,
      "location": "Murcia",
      "modern": "Spain",
      "event": "Born Muhyi al-Din Muhammad ibn Ali ibn al-Arabi in Murcia.",
      "category": "birth",
      "age": 0,
      "source": "Claude Addas, Quest for the Red Sulphur"
    },
    {
      "year": 1173,
      "precision": "year",
      "lat": 37.3891,
      "lng": -5.9845,
      "location": "Seville",
      "modern": "Spain",
      "event": "Family moved to Seville where father served Almohad governor.",
      "category": "childhood",
      "age": 8,
      "source": "Futuhat introduction"
    },
    {
      "year": 1180,
      "precision": "year",
      "lat": 37.3891,
      "lng": -5.9845,
      "location": "Seville",
      "modern": "Spain",
      "event": "Spiritual awakening; began Sufi training under local masters.",
      "category": "study",
      "age": 15,
      "source": "Ruh al-quds"
    },
    {
      "year": 1184,
      "precision": "year",
      "lat": 37.3891,
      "lng": -5.9845,
      "location": "Seville",
      "modern": "Spain",
      "event": "Met philosopher Ibn Rushd (Averroes) in famous encounter.",
      "category": "meeting",
      "age": 19,
      "source": "Futuhat, chapter 154"
    },
    {
      "year": 1190,
      "precision": "year",
      "lat": 36.7213,
      "lng": -4.4214,
      "location": "Malaga",
      "modern": "Spain",
      "event": "Studied with female mystic Fatima bint Ibn al-Muthanna.",
      "category": "study",
      "age": 25,
      "source": "Ruh al-quds"
    },
    {
      "year": 1194,
      "precision": "year",
      "lat": 35.1694,
      "lng": -2.9333,
      "location": "Almeria",
      "modern": "Spain",
      "event": "Met Sufi master Abu Madyan's disciples during travels.",
      "category": "study",
      "age": 29,
      "source": "Ruh al-quds"
    },
    {
      "year": 1196,
      "precision": "year",
      "lat": 36.8065,
      "lng": 10.1815,
      "location": "Tunis",
      "modern": "Tunisia",
      "event": "First journey to North Africa; studied with various Sufi masters.",
      "category": "travel",
      "age": 31,
      "source": "Futuhat"
    },
    {
      "year": 1198,
      "precision": "year",
      "lat": 35.511,
      "lng": -5.3055,
      "location": "Ceuta",
      "modern": "Morocco",
      "event": "Received khirqa (Sufi cloak) from master Abd al-Aziz al-Mahdawi.",
      "category": "study",
      "age": 33,
      "source": "Futuhat"
    },
    {
      "year": 1200,
      "precision": "year",
      "lat": 33.9716,
      "lng": -6.8498,
      "location": "Fez",
      "modern": "Morocco",
      "event": "Studied in Fez; met scholars at Qarawiyyin mosque.",
      "category": "study",
      "age": 35,
      "source": "Tarjuman al-ashwaq preface"
    },
    {
      "year": 1201,
      "precision": "year",
      "lat": 37.3891,
      "lng": -5.9845,
      "location": "Seville",
      "modern": "Spain",
      "event": "Returned briefly to Seville before final departure from al-Andalus.",
      "category": "travel",
      "age": 36,
      "source": "Futuhat"
    },
    {
      "year": 1202,
      "precision": "year",
      "lat": 30.0444,
      "lng": 31.2357,
      "location": "Cairo",
      "modern": "Egypt",
      "event": "Arrived in Cairo; began eastern journey, never to return west.",
      "category": "travel",
      "age": 37,
      "source": "Futuhat"
    },
    {
      "year": 1203,
      "precision": "year",
      "lat": 31.9522,
      "lng": 35.2332,
      "location": "Jerusalem",
      "modern": "Palestine",
      "event": "Visited Jerusalem; spiritual experiences at Dome of the Rock.",
      "category": "pilgrimage",
      "age": 38,
      "source": "Futuhat, chapter 167"
    },
    {
      "year": 1204,
      "precision": "year",
      "lat": 21.4225,
      "lng": 39.8262,
      "location": "Mecca",
      "modern": "Saudi Arabia",
      "event": "First pilgrimage to Mecca; met scholar-mystic Nizam and his daughter.",
      "category": "pilgrimage",
      "age": 39,
      "source": "Tarjuman al-ashwaq"
    },
    {
      "year": 1205,
      "precision": "year",
      "end_year": 1206,
      "lat": 21.4225,
      "lng": 39.8262,
      "location": "Mecca",
      "modern": "Saudi Arabia",
      "event": "Began writing Futuhat al-Makkiyya inspired by visions.",
      "category": "writing",
      "age": 40,
      "source": "Futuhat autograph"
    },
    {
      "year": 1207,
      "precision": "year",
      "lat": 36.2021,
      "lng": 37.1343,
      "location": "Aleppo",
      "modern": "Syria",
      "event": "Traveled to Aleppo; met scholars at court of al-Zahir Ghazi.",
      "category": "travel",
      "age": 42,
      "source": "Futuhat"
    },
    {
      "year": 1210,
      "precision": "year",
      "lat": 36.8969,
      "lng": 30.7133,
      "location": "Antalya",
      "modern": "Turkey",
      "event": "Journeyed to Anatolia visiting various Seljuk cities.",
      "category": "travel",
      "age": 45,
      "source": "Futuhat"
    },
    {
      "year": 1214,
      "precision": "year",
      "lat": 21.4225,
      "lng": 39.8262,
      "location": "Mecca",
      "modern": "Saudi Arabia",
      "event": "Returned to Mecca for extended stay and teaching.",
      "category": "teaching",
      "age": 49,
      "source": "Futuhat"
    },
    {
      "year": 1215,
      "precision": "year",
      "lat": 21.4225,
      "lng": 39.8262,
      "location": "Mecca",
      "modern": "Saudi Arabia",
      "event": "Wrote Tarjuman al-ashwaq (Interpreter of Desires), mystical poetry.",
      "category": "writing",
      "age": 50,
      "source": "Tarjuman al-ashwaq preface"
    },
    {
      "year": 1218,
      "precision": "year",
      "lat": 36.2021,
      "lng": 37.1343,
      "location": "Aleppo",
      "modern": "Syria",
      "event": "Settled in Aleppo under patronage of al-Zahir Ghazi.",
      "category": "appointment",
      "age": 53,
      "source": "Futuh al-Makkiyya"
    },
    {
      "year": 1220,
      "precision": "year",
      "lat": 38.4237,
      "lng": 27.1428,
      "location": "Konya",
      "modern": "Turkey",
      "event": "Visited Konya; met young Jalal al-Din Rumi and his father.",
      "category": "meeting",
      "age": 55,
      "source": "Traditional accounts in Rumi biographies"
    },
    {
      "year": 1223,
      "precision": "year",
      "lat": 30.0444,
      "lng": 31.2357,
      "location": "Cairo",
      "modern": "Egypt",
      "event": "Returned to Cairo; faced criticism from exoteric scholars.",
      "category": "conflict",
      "age": 58,
      "source": "Contemporary biographical sources"
    },
    {
      "year": 1224,
      "precision": "year",
      "lat": 21.4225,
      "lng": 39.8262,
      "location": "Mecca",
      "modern": "Saudi Arabia",
      "event": "Another pilgrimage and teaching period in Mecca.",
      "category": "pilgrimage",
      "age": 59,
      "source": "Futuhat"
    },
    {
      "year": 1229,
      "precision": "year",
      "lat": 33.5138,
      "lng": 36.2765,
      "location": "Damascus",
      "modern": "Syria",
      "event": "Settled permanently in Damascus under Ayyubid protection.",
      "category": "appointment",
      "age": 64,
      "source": "Ibn al-Imad, Shadharat al-dhahab"
    },
    {
      "year": 1230,
      "precision": "year",
      "end_year": 1235,
      "lat": 33.5138,
      "lng": 36.2765,
      "location": "Damascus",
      "modern": "Syria",
      "event": "Intensive teaching and writing; gathered major disciples.",
      "category": "teaching",
      "age": 65,
      "source": "Student accounts"
    },
    {
      "year": 1231,
      "precision": "year",
      "lat": 33.5138,
      "lng": 36.2765,
      "location": "Damascus",
      "modern": "Syria",
      "event": "Completed revised version of Futuhat al-Makkiyya.",
      "category": "writing",
      "age": 66,
      "source": "Futuhat colophon"
    },
    {
      "year": 1233,
      "precision": "year",
      "lat": 33.5138,
      "lng": 36.2765,
      "location": "Damascus",
      "modern": "Syria",
      "event": "Wrote Fusus al-Hikam (Bezels of Wisdom), summary of his doctrine.",
      "category": "writing",
      "age": 68,
      "source": "Fusus introduction"
    },
    {
      "year": 1237,
      "precision": "year",
      "lat": 33.5138,
      "lng": 36.2765,
      "location": "Damascus",
      "modern": "Syria",
      "event": "Faced accusations of heresy from Damascus jurist Ibn al-Salah.",
      "category": "conflict",
      "age": 72,
      "source": "Al-Safadi, al-Wafi bi-l-wafayat"
    },
    {
      "year": 1240,
      "month": 11,
      "precision": "month",
      "lat": 33.5139,
      "lng": 36.3072,
      "location": "Damascus (Salihiyya)",
      "modern": "Syria",
      "event": "Buried on Mount Qasiyun in Salihiyya quarter, Damascus.",
      "category": "burial",
      "age": 75,
      "source": "Shrine location tradition"
    },
    {
      "year": 1240,
      "month": 11,
      "day": 10,
      "precision": "day",
      "lat": 33.5138,
      "lng": 36.2765,
      "location": "Damascus",
      "modern": "Syria",
      "event": "Died in Damascus at age 75.",
      "category": "death",
      "age": 75,
      "source": "Ibn al-Imad, Shadharat al-dhahab"
    }
  ],
  "confidence": {
    "overall": "high",
    "notes": "Major life events well-documented in Futuhat and biographical sources; some travel dates approximate within 1-2 years."
  }
}