{
  "person": "Ibn Khaldun",
  "slug": "F0743",
  "lifespan": {"birth": 1332, "death": 1406},
  "schema_version": 1,
  "confidence": {
    "grade": "A",
    "density": "high",
    "precision": "high",
    "disclosure": "Ibn Khaldun wrote his own autobiography, al-Ta'rif bi Ibn Khaldun wa Rihlatihi Gharban wa Sharqan ('My Journey West and East'), which is unusually detailed for a medieval Muslim scholar — including his appointments, dismissals, imprisonments, and the famous meeting with Timur outside Damascus in 1401. He even tells us his exact birth date. The retreat at Qalat ibn Salama (1375–78), the move to Cairo (1382), the loss of his family in the shipwreck off Alexandria (1384), the pilgrimage of 1387, and the negotiation with Timur (January–March 1401) are all dated. Year-precision throughout, and month-precision at several pivotal points."
  },
  "sources": [
    "Ibn Khaldun, al-Ta'rif bi Ibn Khaldun wa Rihlatihi Gharban wa Sharqan (autobiography)",
    "Ibn Khaldun, Muqaddimah",
    "Walter Fischel, Ibn Khaldun in Egypt (1967)",
    "Allen Fromherz, Ibn Khaldun: Life and Times (2010)",
    "Robert Irwin, Ibn Khaldun: An Intellectual Biography (2018)"
  ],
  "journey": [
    {"year": 1332, "month": 5, "day": 27, "age": 0, "precision": "day", "location": "Tunis", "lat": 36.8065, "lng": 10.1815, "event": "Born on 27 May 1332 (1 Ramadan 732 AH) in Tunis into an aristocratic Andalusian family that had emigrated from Seville to Tunisia after the Reconquista. The Khaldun house still stands in the city.", "category": "birth", "source": "Autobiography"},
    {"year": 1348, "age": 16, "precision": "year", "location": "Tunis", "lat": 36.8065, "lng": 10.1815, "event": "The Black Death sweeps through Tunis. Both his parents and many of his teachers die. He calls the plague the great hinge of his generation: 'It was as if the voice of existence had called out to the world for oblivion and contraction, and the world responded.'", "category": "loss", "source": "Autobiography; Muqaddimah"},
    {"year": 1352, "age": 20, "precision": "year", "location": "Tunis", "lat": 36.8065, "lng": 10.1815, "event": "Takes his first government post at the Hafsid court of Tunis as writer of the official signature on documents — the lowest court appointment available, and one he later describes with embarrassment.", "category": "civic", "source": "Autobiography"},
    {"year": 1354, "age": 22, "precision": "year", "location": "Fez", "lat": 34.0181, "lng": -5.0078, "event": "Leaves Tunis for Fez, the Marinid capital of Morocco — at the time the liveliest scholarly court in North Africa. Sultan Abu Inan Faris appoints him a writer of royal proclamations.", "category": "migration", "source": "Autobiography; Britannica"},
    {"year": 1357, "age": 25, "precision": "year", "location": "Fez", "lat": 34.0181, "lng": -5.0078, "event": "Imprisoned by Sultan Abu Inan after being suspected of plotting on behalf of a rival prince. Spends 22 months in jail, released only when the sultan dies in 1358.", "category": "crisis", "source": "Autobiography"},
    {"year": 1362, "month": 12, "age": 30, "precision": "month", "location": "Granada", "lat": 37.1773, "lng": -3.5986, "event": "Crosses to al-Andalus and arrives in Granada in December 1362. The young Nasrid sultan Muhammad V welcomes him; the vizier Ibn al-Khatib, the great historian-poet of Granada, becomes a close friend and intellectual rival.", "category": "migration", "source": "Autobiography"},
    {"year": 1364, "age": 32, "precision": "year", "location": "Seville", "lat": 37.3891, "lng": -5.9845, "event": "Sent by Muhammad V on a diplomatic mission to Pedro the Cruel, king of Castile, in Seville — the city of his ancestors, now under Christian rule. Pedro is so impressed he offers to restore Ibn Khaldun's family estates if he will enter Castilian service. Ibn Khaldun politely declines.", "category": "diplomacy", "source": "Autobiography"},
    {"year": 1365, "month": 2, "age": 32, "precision": "month", "location": "Bejaia", "lat": 36.7515, "lng": 5.0566, "event": "Leaves Granada in February 1365 — relations with Ibn al-Khatib have soured — and crosses back to North Africa to take up the office of chamberlain (hajib) under the Hafsid emir of Bejaia. The post is the first that matches his ambitions.", "category": "civic", "source": "Autobiography"},
    {"year": 1366, "age": 34, "precision": "year", "location": "Bejaia", "lat": 36.7515, "lng": 5.0566, "event": "His patron is killed in battle. Over the next ten years Ibn Khaldun changes employers and cities with disconcerting rapidity — Tlemcen, Biskra, Fez, Granada again — serving prime ministers and warring princes, leading punitive expeditions against Berber tribes, and once being robbed and stripped by nomads in the desert.", "category": "crisis", "source": "Autobiography; Britannica"},
    {"year": 1375, "age": 43, "precision": "year", "location": "Qalat ibn Salama", "lat": 35.2000, "lng": 1.4000, "event": "Tired of politics and intrigue, withdraws with his family to the remote castle of Qalat ibn Salama in western Algeria, the guests of an Arab tribe. He stays for over three years in 'a state of leisure that I had not enjoyed for a long time'.", "category": "spiritual", "source": "Autobiography"},
    {"year": 1377, "age": 45, "precision": "year", "location": "Qalat ibn Salama", "lat": 35.2000, "lng": 1.4000, "event": "In about five months of intense work composes the first draft of the Muqaddimah — the 'Introduction' to his world history that becomes one of the founding works of historiography, sociology and economics. He says the words came pouring out 'as if poured into me from on high'.", "category": "spiritual", "source": "Autobiography; Muqaddimah"},
    {"year": 1378, "age": 46, "precision": "year", "location": "Tunis", "lat": 36.8065, "lng": 10.1815, "event": "Returns to his native Tunis to access the libraries he needs to complete the historical volumes of the Kitab al-Ibar. The Hafsid sultan Abu al-Abbas accepts him back. But the imam of the Zaytuna Mosque, an old rival from his student days, grows jealous, and the sultan insists on keeping Ibn Khaldun at court.", "category": "civic", "source": "Autobiography"},
    {"year": 1382, "month": 10, "age": 50, "precision": "month", "location": "Alexandria", "lat": 31.2001, "lng": 29.9187, "event": "Asks the sultan's permission to perform the hajj — the one excuse a Muslim ruler cannot deny. Sails from Tunis in October 1382 and arrives in Alexandria. He never returns to the Maghreb.", "category": "migration", "source": "Autobiography"},
    {"year": 1382, "age": 50, "precision": "year", "location": "Cairo", "lat": 30.0444, "lng": 31.2357, "event": "Travels on to Cairo and is overwhelmed by the city. 'He who has not seen it,' he writes, 'does not know the power of Islam.' The Mamluk sultan Barquq receives him with honour.", "category": "migration", "source": "Autobiography"},
    {"year": 1384, "age": 52, "precision": "year", "location": "Cairo", "lat": 30.0444, "lng": 31.2357, "event": "Appointed by Sultan Barquq as Grand Qadi of the Maliki school in Cairo and professor at the Qamhiyya madrasa. He works hard at judicial reform and quickly makes enemies among the entrenched court officials.", "category": "civic", "source": "Autobiography; Fischel"},
    {"year": 1384, "age": 52, "precision": "year", "location": "Alexandria", "lat": 31.2001, "lng": 29.9187, "event": "Disaster. The ship bringing his wife and children from Tunis to join him in Egypt sinks off the harbour of Alexandria. All are lost. Devastated, he resigns his judgeship and turns to teaching.", "category": "loss", "source": "Autobiography"},
    {"year": 1387, "age": 55, "precision": "year", "location": "Mecca", "lat": 21.4225, "lng": 39.8262, "event": "Performs the hajj he had used as his pretext for leaving Tunis five years earlier.", "category": "pilgrimage", "source": "Autobiography"},
    {"year": 1388, "age": 56, "precision": "year", "location": "Cairo", "lat": 30.0444, "lng": 31.2357, "event": "Returns to Cairo and concentrates on teaching at al-Azhar and the other great madrasas. He is reappointed Maliki qadi six times in all over the following years, always for short tenures and always making enemies.", "category": "civic", "source": "Autobiography"},
    {"year": 1400, "age": 68, "precision": "year", "location": "Jerusalem", "lat": 31.7781, "lng": 35.2358, "event": "Visits the holy places of Palestine, including Jerusalem and Hebron — a religious experience that he describes with unusual emotion in his autobiography.", "category": "pilgrimage", "source": "Autobiography"},
    {"year": 1401, "month": 1, "age": 68, "precision": "month", "location": "Damascus", "lat": 33.5138, "lng": 36.2765, "event": "Forced by the young Mamluk Sultan Faraj to accompany him to Damascus, which the Turco-Mongol conqueror Timur is besieging. Ibn Khaldun thinks the venture suicidal but cannot refuse. Faraj, hearing of a revolt back in Cairo, abandons his army and rushes home — leaving Ibn Khaldun and a few jurists in the besieged city.", "category": "diplomacy", "source": "Autobiography"},
    {"year": 1401, "month": 2, "age": 68, "precision": "month", "location": "Damascus", "lat": 33.5138, "lng": 36.2765, "event": "Lowered over the city wall by ropes to negotiate with Timur in the Mongol camp. Spends seven weeks in the camp in a series of long conversations with the conqueror, who is fascinated by the lands of the Maghreb and asks Ibn Khaldun to write him a long report on them. Timur sacks Damascus anyway.", "category": "diplomacy", "source": "Autobiography; Fischel"},
    {"year": 1401, "age": 69, "precision": "year", "location": "Cairo", "lat": 30.0444, "lng": 31.2357, "event": "Returns to Cairo and immediately writes a description of Timur, including a sober assessment of his intentions, which he sends to the Marinid rulers in Fez as a warning.", "category": "spiritual", "source": "Autobiography"},
    {"year": 1406, "month": 3, "day": 17, "age": 73, "precision": "day", "location": "Cairo", "lat": 30.0444, "lng": 31.2357, "event": "Dies suddenly in Cairo on 17 March 1406 (25 Ramadan 808 AH), still serving as Maliki qadi. Buried in the Sufi cemetery outside Bab al-Nasr. He had never returned to Tunis but continued to wear, until the last, the dark burnous that is still the dress of North Africa.", "category": "death", "source": "Autobiography; Ibn Hajar"}
  ]
}
