{
  "schema_version": 1,
  "person": "Shah Abbas I",
  "slug": "F1283",
  "lifespan": "1571-1629 CE",
  "confidence": {
    "grade": "A",
    "density": "dense",
    "precision": "month",
    "disclosure": "Reconstructed from Iskandar Beg Munshi's Tarikh-i Alam-ara-yi Abbasi — the 1,116-page chronicle written by Abbas's own court secretary, covering the entire reign with year-and-often-month precision. Supplemented by contemporary European visitors (Antonio de Gouvea, Pietro della Valle, the Sherley brothers). Capped at ~55 of the most significant stops; the chronicle records dozens more minor royal movements between Isfahan, Qazvin, Mazandaran, and Ashraf."
  },
  "sources": [
    "Iskandar Beg Munshi, Tarikh-i Alam-ara-yi Abbasi (c. 1629)",
    "Antonio de Gouvea, Relaçam em que se tratam as guerras e grandes victorias (1611)",
    "Pietro della Valle, Viaggi (1650)",
    "Roger Savory, Iran Under the Safavids (1980)",
    "Sholeh Quinn, Shah Abbas: The King Who Refashioned Iran (2015)"
  ],
  "journey": [
    {"year": 1571, "location": "Herat, Afghanistan", "lat": 34.3529, "lng": 62.2040, "event": "Born at Herat on 27 January 1571, son of Muhammad Khudabanda.", "category": "birth", "precision": "day", "source": "Iskandar Beg"},
    {"year": 1578, "location": "Herat, Afghanistan", "lat": 34.3529, "lng": 62.2040, "event": "Raised at Herat under his guardian Murshid Quli Khan Ustajlu.", "category": "other", "precision": "year", "source": "Iskandar Beg"},
    {"year": 1587, "location": "Qazvin, Iran", "lat": 36.2797, "lng": 50.0049, "event": "Enthroned as shah at Qazvin on 1 October 1587 at the age of 16 after Murshid Quli Khan deposed his father.", "category": "coronation", "precision": "day", "source": "Iskandar Beg"},
    {"year": 1590, "location": "Qazvin, Iran", "lat": 36.2797, "lng": 50.0049, "event": "Concluded the humiliating Treaty of Istanbul with the Ottomans, ceding Azerbaijan and Georgia temporarily.", "category": "embassy", "precision": "year", "source": "Iskandar Beg"},
    {"year": 1591, "location": "Qum, Iran", "lat": 34.6399, "lng": 50.8759, "event": "Visited the shrine of Fatima Masumeh at Qum.", "category": "pilgrimage", "precision": "year", "source": "Iskandar Beg"},
    {"year": 1594, "location": "Mashhad, Iran", "lat": 36.2605, "lng": 59.6168, "event": "Made the first of many pilgrimages to the shrine of Imam Reza at Mashhad.", "category": "pilgrimage", "precision": "year", "source": "Iskandar Beg"},
    {"year": 1598, "location": "Herat, Afghanistan", "lat": 34.3529, "lng": 62.2040, "event": "Crushed the Uzbek khan Din Muhammad at the Battle of Herat in August 1598, reclaiming Khurasan.", "category": "battle", "precision": "month", "source": "Iskandar Beg"},
    {"year": 1598, "location": "Mashhad, Iran", "lat": 36.2605, "lng": 59.6168, "event": "Walked the 800 km from Isfahan to Mashhad on foot as a pilgrimage vow before the Uzbek campaign.", "category": "pilgrimage", "precision": "month", "source": "Iskandar Beg"},
    {"year": 1598, "location": "Isfahan, Iran", "lat": 32.6539, "lng": 51.6660, "event": "Transferred the capital from Qazvin to Isfahan and began the grand rebuilding programme around the Naqsh-i Jahan square.", "category": "capital", "precision": "year", "source": "Iskandar Beg"},
    {"year": 1602, "location": "Bahrain, Bahrain", "lat": 26.0667, "lng": 50.5577, "event": "Safavid forces retook Bahrain from the Portuguese.", "category": "campaign", "precision": "year", "source": "Iskandar Beg"},
    {"year": 1603, "location": "Nakhchivan, Azerbaijan", "lat": 39.2089, "lng": 45.4122, "event": "Launched the war of reconquest against the Ottomans, beginning with Nakhchivan.", "category": "campaign", "precision": "month", "source": "Iskandar Beg"},
    {"year": 1603, "location": "Julfa, Azerbaijan", "lat": 38.9561, "lng": 45.6300, "event": "Deported the Armenian population of Julfa to New Julfa in Isfahan (one of the largest forced migrations in the region's history).", "category": "campaign", "precision": "month", "source": "Iskandar Beg"},
    {"year": 1603, "location": "Tabriz, Iran", "lat": 38.0962, "lng": 46.2738, "event": "Recaptured Tabriz from the Ottomans after 18 years of occupation.", "category": "battle", "precision": "month", "source": "Iskandar Beg"},
    {"year": 1604, "location": "Erivan (Yerevan), Armenia", "lat": 40.1776, "lng": 44.5126, "event": "Besieged and took Erivan fortress from the Ottomans after an eight-month siege.", "category": "battle", "precision": "month", "source": "Iskandar Beg"},
    {"year": 1604, "location": "Kars, Turkey", "lat": 40.6013, "lng": 43.0975, "event": "Extended Safavid control westward to Kars.", "category": "campaign", "precision": "year", "source": "Iskandar Beg"},
    {"year": 1605, "location": "Sufiyan, Iran", "lat": 38.2911, "lng": 45.9997, "event": "Crushed a huge Ottoman army at the Battle of Sufiyan in September 1605.", "category": "battle", "precision": "month", "source": "Iskandar Beg"},
    {"year": 1606, "location": "Ganja, Azerbaijan", "lat": 40.6828, "lng": 46.3606, "event": "Took Ganja in the eastern Caucasus.", "category": "campaign", "precision": "year", "source": "Iskandar Beg"},
    {"year": 1607, "location": "Shirvan, Azerbaijan", "lat": 40.9833, "lng": 48.9167, "event": "Reconquered Shirvan from the Ottomans.", "category": "campaign", "precision": "year", "source": "Iskandar Beg"},
    {"year": 1607, "location": "Derbent, Russia", "lat": 42.0587, "lng": 48.2981, "event": "Recovered Derbent on the Caspian coast.", "category": "campaign", "precision": "year", "source": "Iskandar Beg"},
    {"year": 1609, "location": "Tbilisi, Georgia", "lat": 41.7151, "lng": 44.8271, "event": "First of several campaigns against Kakheti and Kartli in Georgia.", "category": "campaign", "precision": "year", "source": "Iskandar Beg"},
    {"year": 1611, "location": "Ashraf (Behshahr), Iran", "lat": 36.6917, "lng": 53.5500, "event": "Began construction of the royal garden city of Ashraf in Mazandaran as a summer capital.", "category": "capital", "precision": "year", "source": "Iskandar Beg"},
    {"year": 1612, "location": "Isfahan, Iran", "lat": 32.6539, "lng": 51.6660, "event": "Received English ambassador Sir Robert Sherley at Isfahan to discuss an anti-Ottoman alliance.", "category": "embassy", "precision": "year", "source": "Iskandar Beg"},
    {"year": 1614, "location": "Tbilisi, Georgia", "lat": 41.7151, "lng": 44.8271, "event": "Deposed the Georgian kings Luarsab II and Teimuraz I and installed Muslim converts in their place.", "category": "campaign", "precision": "year", "source": "Iskandar Beg"},
    {"year": 1616, "location": "Ardabil, Iran", "lat": 38.2498, "lng": 48.2933, "event": "Visited the Safavid ancestral shrine at Ardabil.", "category": "pilgrimage", "precision": "year", "source": "Iskandar Beg"},
    {"year": 1616, "location": "Tbilisi, Georgia", "lat": 41.7151, "lng": 44.8271, "event": "Launched a punitive campaign in Kakheti, reportedly killing 60-70,000 Georgians and deporting 100,000 more.", "category": "campaign", "precision": "year", "source": "Iskandar Beg"},
    {"year": 1618, "location": "Sultaniyya, Iran", "lat": 36.4333, "lng": 48.7833, "event": "Negotiated peace with the Ottomans at Sultaniyya, ending the second war with favourable terms for the Safavids.", "category": "embassy", "precision": "year", "source": "Iskandar Beg"},
    {"year": 1619, "location": "Isfahan, Iran", "lat": 32.6539, "lng": 51.6660, "event": "Received Pietro della Valle and other European visitors at the new Naqsh-i Jahan complex.", "category": "embassy", "precision": "year", "source": "della Valle"},
    {"year": 1620, "location": "Kandahar, Afghanistan", "lat": 31.6100, "lng": 65.7100, "event": "Captured Kandahar from the Mughals under Jahangir.", "category": "battle", "precision": "year", "source": "Iskandar Beg"},
    {"year": 1622, "location": "Hormuz, Iran", "lat": 27.0935, "lng": 56.4525, "event": "Safavid forces supported by the English East India Company took Hormuz from the Portuguese in April 1622, ending 115 years of Portuguese rule.", "category": "battle", "precision": "month", "source": "Iskandar Beg"},
    {"year": 1623, "location": "Baghdad, Iraq", "lat": 33.3152, "lng": 44.3661, "event": "Recaptured Baghdad from the Ottomans after a brief siege.", "category": "battle", "precision": "month", "source": "Iskandar Beg"},
    {"year": 1623, "location": "Najaf, Iraq", "lat": 31.9867, "lng": 44.3147, "event": "Visited the shrine of Ali at Najaf after the capture of Baghdad.", "category": "pilgrimage", "precision": "year", "source": "Iskandar Beg"},
    {"year": 1623, "location": "Karbala, Iraq", "lat": 32.6167, "lng": 44.0333, "event": "Visited the shrine of Husayn at Karbala.", "category": "pilgrimage", "precision": "year", "source": "Iskandar Beg"},
    {"year": 1623, "location": "Kazimiyya, Iraq", "lat": 33.3833, "lng": 44.3333, "event": "Visited the twin shrines of the seventh and ninth Imams at Kazimiyya near Baghdad.", "category": "pilgrimage", "precision": "year", "source": "Iskandar Beg"},
    {"year": 1624, "location": "Samarra, Iraq", "lat": 34.1983, "lng": 43.8742, "event": "Visited the shrines of the tenth and eleventh Imams at Samarra.", "category": "pilgrimage", "precision": "year", "source": "Iskandar Beg"},
    {"year": 1625, "location": "Baghdad, Iraq", "lat": 33.3152, "lng": 44.3661, "event": "Personally supervised the successful defence of Baghdad against an Ottoman counter-offensive.", "category": "battle", "precision": "month", "source": "Iskandar Beg"},
    {"year": 1626, "location": "Qazvin, Iran", "lat": 36.2797, "lng": 50.0049, "event": "Held court at Qazvin before the final illness.", "category": "other", "precision": "year", "source": "Iskandar Beg"},
    {"year": 1627, "location": "Isfahan, Iran", "lat": 32.6539, "lng": 51.6660, "event": "Returned to Isfahan; began showing signs of the final illness.", "category": "other", "precision": "year", "source": "Iskandar Beg"},
    {"year": 1628, "location": "Mazandaran, Iran", "lat": 36.5656, "lng": 53.0586, "event": "Withdrew to his beloved Mazandaran for the last time.", "category": "other", "precision": "year", "source": "Iskandar Beg"},
    {"year": 1629, "location": "Ashraf (Behshahr), Iran", "lat": 36.6917, "lng": 53.5500, "event": "Died at Ashraf in Mazandaran on 19 January 1629 after a 41-year reign.", "category": "death", "precision": "day", "source": "Iskandar Beg"},
    {"year": 1629, "location": "Kashan, Iran", "lat": 33.9831, "lng": 51.4364, "event": "Buried in a modest grave at Kashan rather than at the royal shrine at Ardabil, reportedly by his own wish.", "category": "death", "precision": "month", "source": "Iskandar Beg"}
  ]
}
