{
  "schema_version": 1,
  "person": "Timur (Tamerlane)",
  "slug": "F1396",
  "lifespan": "1336-1405 CE",
  "confidence": {
    "grade": "A",
    "density": "dense",
    "precision": "month",
    "disclosure": "Itinerary drawn from the two contemporary Zafarnamas (Yazdi and Shami), Ibn Arabshah's hostile biography, Ruy Gonzalez de Clavijo's eyewitness embassy account, and Beatrice Forbes Manz's modern reconstruction. Timur's entire career is documented with month-level precision in the Zafarnamas, organised into named multi-year campaigns (Three-Year, Five-Year, Seven-Year). Capped at the most historically significant stops of roughly 65 events; thousands of intermediate camps are omitted."
  },
  "sources": [
    "Sharaf al-Din Ali Yazdi, Zafarnama (c. 1425)",
    "Nizam al-Din Shami, Zafarnama (c. 1404)",
    "Ibn Arabshah, Aja'ib al-Maqdur fi Nawa'ib Taymur (c. 1435)",
    "Ruy Gonzalez de Clavijo, Embassy to Tamerlane (c. 1406)",
    "Beatrice Forbes Manz, The Rise and Rule of Tamerlane (1989)"
  ],
  "journey": [
    {"year": 1336, "location": "Kesh (Shahrisabz), Uzbekistan", "lat": 39.0500, "lng": 66.8333, "event": "Born into the Turco-Mongol Barlas tribe at Kesh, south of Samarkand, on 9 April 1336.", "category": "birth", "precision": "day", "source": "Yazdi"},
    {"year": 1360, "location": "Transoxiana, Uzbekistan", "lat": 39.6270, "lng": 66.9750, "event": "Entered the service of the Chagatai prince Tughluq Timur during his invasion of Transoxiana.", "category": "other", "precision": "year", "source": "Yazdi"},
    {"year": 1363, "location": "Sistan, Iran", "lat": 31.0000, "lng": 61.5000, "event": "Wounded in the right leg and right arm during a campaign in Sistan, leaving him permanently lame ('Timur the Lame').", "category": "battle", "precision": "year", "source": "Yazdi"},
    {"year": 1370, "location": "Balkh, Afghanistan", "lat": 36.7581, "lng": 66.8970, "event": "Defeated his rival Amir Husayn and was proclaimed supreme ruler at Balkh in April 1370.", "category": "coronation", "precision": "month", "source": "Yazdi"},
    {"year": 1370, "location": "Samarkand, Uzbekistan", "lat": 39.6270, "lng": 66.9750, "event": "Made Samarkand his capital and began its transformation into an imperial city.", "category": "capital", "precision": "year", "source": "Yazdi"},
    {"year": 1371, "location": "Khwarezm, Uzbekistan", "lat": 42.3414, "lng": 59.1497, "event": "Launched the first of five campaigns against the Sufi dynasty of Khwarezm.", "category": "campaign", "precision": "year", "source": "Yazdi"},
    {"year": 1376, "location": "Moghulistan, Kyrgyzstan", "lat": 42.8746, "lng": 74.5698, "event": "Campaigned against the Chagatai prince Qamar al-Din in the territory east of Lake Issyk-Kul.", "category": "campaign", "precision": "year", "source": "Shami"},
    {"year": 1381, "location": "Herat, Afghanistan", "lat": 34.3529, "lng": 62.2040, "event": "Captured Herat from the Kartid dynasty, beginning the conquest of Khurasan.", "category": "battle", "precision": "year", "source": "Yazdi"},
    {"year": 1383, "location": "Sistan, Iran", "lat": 31.0000, "lng": 61.5000, "event": "Destroyed the irrigation works of Sistan in retribution for resistance.", "category": "campaign", "precision": "year", "source": "Yazdi"},
    {"year": 1384, "location": "Mazandaran, Iran", "lat": 36.5656, "lng": 53.0586, "event": "Subdued the Caspian provinces of Mazandaran and Gurgan.", "category": "campaign", "precision": "year", "source": "Yazdi"},
    {"year": 1386, "location": "Tabriz, Iran", "lat": 38.0962, "lng": 46.2738, "event": "Began the Three-Year Campaign with the capture of Tabriz from the Jalayirids.", "category": "campaign", "precision": "year", "source": "Yazdi"},
    {"year": 1386, "location": "Tbilisi, Georgia", "lat": 41.7151, "lng": 44.8271, "event": "Crossed the Caucasus and sacked the Georgian capital of Tbilisi, capturing King Bagrat V.", "category": "battle", "precision": "year", "source": "Shami"},
    {"year": 1387, "location": "Isfahan, Iran", "lat": 32.6539, "lng": 51.6660, "event": "Massacred the population of Isfahan in November 1387 after a local revolt; contemporaries report 70,000 skulls piled in towers.", "category": "battle", "precision": "month", "source": "Yazdi"},
    {"year": 1387, "location": "Shiraz, Iran", "lat": 29.5918, "lng": 52.5837, "event": "Accepted the submission of the Muzaffarid dynasty at Shiraz.", "category": "campaign", "precision": "year", "source": "Yazdi"},
    {"year": 1388, "location": "Samarkand, Uzbekistan", "lat": 39.6270, "lng": 66.9750, "event": "Returned to Samarkand in response to Tokhtamysh's raids on Transoxiana.", "category": "capital", "precision": "year", "source": "Yazdi"},
    {"year": 1391, "location": "Kondurcha River, Russia", "lat": 53.5000, "lng": 50.0000, "event": "Defeated the Golden Horde khan Tokhtamysh at the Battle of the Kondurcha River in June 1391.", "category": "battle", "precision": "month", "source": "Yazdi"},
    {"year": 1392, "location": "Mazandaran, Iran", "lat": 36.5656, "lng": 53.0586, "event": "Began the Five-Year Campaign with a second invasion of the Caspian provinces.", "category": "campaign", "precision": "year", "source": "Yazdi"},
    {"year": 1393, "location": "Shiraz, Iran", "lat": 29.5918, "lng": 52.5837, "event": "Returned to Shiraz and exterminated the Muzaffarid princes; legend holds he met the poet Hafiz here.", "category": "campaign", "precision": "year", "source": "Yazdi"},
    {"year": 1393, "location": "Baghdad, Iraq", "lat": 33.3152, "lng": 44.3661, "event": "Captured Baghdad in October 1393; the Jalayirid sultan Ahmad fled to Mamluk Egypt.", "category": "battle", "precision": "month", "source": "Yazdi"},
    {"year": 1394, "location": "Diyarbakir, Turkey", "lat": 37.9144, "lng": 40.2306, "event": "Campaigned in the Jazira and took Diyarbakir and Mardin.", "category": "campaign", "precision": "year", "source": "Shami"},
    {"year": 1395, "location": "Terek River, Russia", "lat": 43.7500, "lng": 45.0000, "event": "Defeated Tokhtamysh decisively at the Battle of the Terek River, breaking the Golden Horde's power.", "category": "battle", "precision": "month", "source": "Yazdi"},
    {"year": 1395, "location": "Sarai, Russia", "lat": 47.5167, "lng": 46.0833, "event": "Sacked the Golden Horde capital of Sarai on the lower Volga.", "category": "battle", "precision": "year", "source": "Yazdi"},
    {"year": 1395, "location": "Astrakhan, Russia", "lat": 46.3479, "lng": 48.0336, "event": "Destroyed the city of Hajji Tarkhan (Astrakhan) at the mouth of the Volga.", "category": "campaign", "precision": "year", "source": "Yazdi"},
    {"year": 1396, "location": "Samarkand, Uzbekistan", "lat": 39.6270, "lng": 66.9750, "event": "Returned to Samarkand after four years' campaigning and began major construction projects.", "category": "capital", "precision": "year", "source": "Yazdi"},
    {"year": 1398, "location": "Kabul, Afghanistan", "lat": 34.5553, "lng": 69.2075, "event": "Assembled his army at Kabul for the invasion of India.", "category": "campaign", "precision": "month", "source": "Yazdi"},
    {"year": 1398, "location": "Indus River crossing, Pakistan", "lat": 32.9333, "lng": 71.5667, "event": "Crossed the Indus at Attock in September 1398.", "category": "campaign", "precision": "month", "source": "Yazdi"},
    {"year": 1398, "location": "Multan, Pakistan", "lat": 30.1575, "lng": 71.5249, "event": "Advance force under his grandson Pir Muhammad took Multan.", "category": "campaign", "precision": "month", "source": "Yazdi"},
    {"year": 1398, "location": "Delhi, India", "lat": 28.6139, "lng": 77.2090, "event": "Defeated the Tughluq sultan Mahmud Shah II at the Battle of Delhi on 17 December 1398; sacked the city for three days.", "category": "battle", "precision": "day", "source": "Yazdi"},
    {"year": 1399, "location": "Haridwar, India", "lat": 29.9457, "lng": 78.1642, "event": "Marched northeast to Haridwar on the Ganges before turning back through the Himalayan foothills.", "category": "campaign", "precision": "month", "source": "Yazdi"},
    {"year": 1399, "location": "Samarkand, Uzbekistan", "lat": 39.6270, "lng": 66.9750, "event": "Returned to Samarkand in April 1399 with enormous plunder from India.", "category": "capital", "precision": "month", "source": "Yazdi"},
    {"year": 1399, "location": "Tabriz, Iran", "lat": 38.0962, "lng": 46.2738, "event": "Began the Seven-Year Campaign westward from his Azerbaijani base at Tabriz.", "category": "campaign", "precision": "year", "source": "Yazdi"},
    {"year": 1400, "location": "Sivas, Turkey", "lat": 39.7477, "lng": 37.0179, "event": "Stormed the Ottoman-held city of Sivas in August 1400, burying the Armenian defenders alive.", "category": "battle", "precision": "month", "source": "Yazdi"},
    {"year": 1400, "location": "Malatya, Turkey", "lat": 38.3554, "lng": 38.3335, "event": "Took Malatya on the Mamluk frontier.", "category": "campaign", "precision": "month", "source": "Yazdi"},
    {"year": 1400, "location": "Aleppo, Syria", "lat": 36.2021, "lng": 37.1343, "event": "Defeated the Mamluk army outside Aleppo and sacked the city in November 1400.", "category": "battle", "precision": "month", "source": "Yazdi"},
    {"year": 1400, "location": "Homs, Syria", "lat": 34.7333, "lng": 36.7233, "event": "Passed through Homs and Hama advancing on Damascus.", "category": "campaign", "precision": "month", "source": "Yazdi"},
    {"year": 1401, "location": "Damascus, Syria", "lat": 33.5138, "lng": 36.2765, "event": "Captured Damascus in March 1401 after the Mamluk sultan fled; the city was looted and burned, and artisans deported to Samarkand. Ibn Khaldun met Timur during this siege.", "category": "battle", "precision": "month", "source": "Yazdi"},
    {"year": 1401, "location": "Baghdad, Iraq", "lat": 33.3152, "lng": 44.3661, "event": "Stormed Baghdad a second time in July 1401 after the Jalayirids reoccupied it; ordered 120 towers built from the skulls of the defenders.", "category": "battle", "precision": "month", "source": "Yazdi"},
    {"year": 1402, "location": "Sivas, Turkey", "lat": 39.7477, "lng": 37.0179, "event": "Moved his army toward Anatolia after the Ottoman sultan Bayezid I refused Timurid suzerainty.", "category": "campaign", "precision": "month", "source": "Yazdi"},
    {"year": 1402, "location": "Ankara, Turkey", "lat": 39.9208, "lng": 32.8541, "event": "Defeated and captured the Ottoman sultan Bayezid I at the Battle of Ankara on 28 July 1402, temporarily shattering the Ottoman state.", "category": "battle", "precision": "day", "source": "Yazdi"},
    {"year": 1402, "location": "Bursa, Turkey", "lat": 40.1828, "lng": 29.0665, "event": "Sacked the Ottoman capital of Bursa after Ankara.", "category": "battle", "precision": "month", "source": "Yazdi"},
    {"year": 1402, "location": "Izmir, Turkey", "lat": 38.4192, "lng": 27.1287, "event": "Captured Smyrna (Izmir) from the Knights of Rhodes in December 1402 after a two-week siege.", "category": "battle", "precision": "month", "source": "Yazdi"},
    {"year": 1403, "location": "Erzurum, Turkey", "lat": 39.9043, "lng": 41.2679, "event": "Wintered at Erzurum on the return march east.", "category": "campaign", "precision": "month", "source": "Yazdi"},
    {"year": 1403, "location": "Sultaniyya, Iran", "lat": 36.4333, "lng": 48.7833, "event": "Received ambassadors at Sultaniyya, including the Castilian envoy Ruy Gonzalez de Clavijo.", "category": "embassy", "precision": "month", "source": "Clavijo"},
    {"year": 1404, "location": "Samarkand, Uzbekistan", "lat": 39.6270, "lng": 66.9750, "event": "Returned in triumph to Samarkand and received Clavijo and other foreign envoys at a series of grand feasts.", "category": "capital", "precision": "month", "source": "Clavijo"},
    {"year": 1404, "location": "Kesh (Shahrisabz), Uzbekistan", "lat": 39.0500, "lng": 66.8333, "event": "Visited his birthplace Kesh, where his great palace the Aq Saray was under construction.", "category": "other", "precision": "month", "source": "Clavijo"},
    {"year": 1404, "location": "Samarkand, Uzbekistan", "lat": 39.6270, "lng": 66.9750, "event": "Set out in November 1404 on his planned invasion of Ming China with 200,000 men.", "category": "campaign", "precision": "month", "source": "Yazdi"},
    {"year": 1405, "location": "Otrar, Kazakhstan", "lat": 42.8500, "lng": 68.3000, "event": "Fell ill at Otrar on the Syr Darya during the march to China and died on 17 February 1405.", "category": "death", "precision": "day", "source": "Yazdi"},
    {"year": 1405, "location": "Samarkand, Uzbekistan", "lat": 39.6270, "lng": 66.9750, "event": "His body was returned to Samarkand and buried in the Gur-i Amir mausoleum.", "category": "death", "precision": "month", "source": "Yazdi"}
  ]
}
